{
  "type": "FeatureCollection",
  "features": [
    {
      "type": "Feature",
      "properties": {
        "type": "node",
        "tags": {
          "name": "LIE"
        }
      },
      "geometry": {
        "type": "Point",
        "coordinates": [
          10.28992,
          59.76332
        ]
      }
    },
    {
      "type": "Feature",
      "properties": {
        "type": "node",
        "tags": {
          "name": "HB1"
        }
      },
      "geometry": {
        "type": "Point",
        "coordinates": [
          10.24888,
          59.7491
        ]
      }
    },
    {
      "type": "Feature",
      "properties": {
        "type": "node",
        "tags": {
          "name": "BRA"
        }
      },
      "geometry": {
        "type": "Point",
        "coordinates": [
          10.23277,
          59.74349
        ]
      }
    },
    {
      "type": "Feature",
      "properties": {
        "type": "node",
        "tags": {
          "name": "HMS"
        }
      },
      "geometry": {
        "type": "Point",
        "coordinates": [
          10.21922,
          59.73732
        ]
      }
    },
    {
      "type": "Feature",
      "properties": {
        "type": "node",
        "tags": {
          "name": "DRM"
        }
      },
      "geometry": {
        "type": "Point",
        "coordinates": [
          10.20484,
          59.74016
        ]
      }
    },
    {
      "type": "Feature",
      "properties": {
        "type": "node",
        "tags": {
          "name": "SUD"
        }
      },
      "geometry": {
        "type": "Point",
        "coordinates": [
          10.17618,
          59.74242
        ]
      }
    },
    {
      "type": "Feature",
      "properties": {
        "type": "node",
        "tags": {
          "name": "KOB"
        }
      },
      "geometry": {
        "type": "Point",
        "coordinates": [
          10.2465,
          59.68369
        ]
      }
    },
    {
      "type": "Feature",
      "properties": {
        "type": "node",
        "tags": {
          "name": "SKG"
        }
      },
      "geometry": {
        "type": "Point",
        "coordinates": [
          10.240895,
          59.670604
        ]
      }
    },
    {
      "type": "Feature",
      "properties": {
        "type": "node",
        "tags": {
          "name": "GAB"
        }
      },
      "geometry": {
        "type": "Point",
        "coordinates": [
          10.22585,
          59.62932
        ]
      }
    },
    {
      "type": "Feature",
      "properties": {
        "type": "node",
        "tags": {
          "name": "SND"
        }
      },
      "geometry": {
        "type": "Point",
        "coordinates": [
          10.20469,
          59.58512
        ]
      }
    },
    {
      "type": "Feature",
      "properties": {
        "type": "node",
        "tags": {
          "name": "HOM"
        }
      },
      "geometry": {
        "type": "Point",
        "coordinates": [
          10.22989,
          59.55332
        ]
      }
    },
    {
      "type": "Feature",
      "properties": {
        "type": "node",
        "tags": {
          "name": "HSD"
        }
      },
      "geometry": {
        "type": "Point",
        "coordinates": [
          10.31145,
          59.49267
        ]
      }
    },
    {
      "type": "Feature",
      "properties": {
        "type": "node",
        "tags": {
          "name": "NYK"
        }
      },
      "geometry": {
        "type": "Point",
        "coordinates": [
          10.38442,
          59.42443
        ]
      }
    },
    {
      "type": "Feature",
      "properties": {
        "type": "node",
        "tags": {
          "name": "SKP"
        }
      },
      "geometry": {
        "type": "Point",
        "coordinates": [
          10.41109,
          59.39112
        ]
      }
    },
    {
      "type": "Feature",
      "properties": {
        "type": "node",
        "tags": {
          "name": "TBG"
        }
      },
      "geometry": {
        "type": "Point",
        "coordinates": [
          10.40957,
          59.27207
        ]
      }
    },
    {
      "type": "Feature",
      "properties": {
        "type": "node",
        "tags": {
          "name": "SEM"
        }
      },
      "geometry": {
        "type": "Point",
        "coordinates": [
          10.33323,
          59.28144
        ]
      }
    },
    {
      "type": "Feature",
      "properties": {
        "type": "node",
        "tags": {
          "name": "SKK"
        }
      },
      "geometry": {
        "type": "Point",
        "coordinates": [
          10.30047,
          59.22153
        ]
      }
    },
    {
      "type": "Feature",
      "properties": {
        "type": "node",
        "tags": {
          "name": "TOR"
        }
      },
      "geometry": {
        "type": "Point",
        "coordinates": [
          10.26626,
          59.16542
        ]
      }
    },
    {
      "type": "Feature",
      "properties": {
        "type": "node",
        "tags": {
          "name": "SFJ"
        }
      },
      "geometry": {
        "type": "Point",
        "coordinates": [
          10.22308,
          59.13532
        ]
      }
    },
    {
      "type": "Feature",
      "properties": {
        "type": "node",
        "tags": {
          "name": "LAU"
        }
      },
      "geometry": {
        "type": "Point",
        "coordinates": [
          10.15004,
          59.06145
        ]
      }
    },
    {
      "type": "Feature",
      "properties": {
        "type": "node",
        "tags": {
          "name": "LVK"
        }
      },
      "geometry": {
        "type": "Point",
        "coordinates": [
          10.03148,
          59.05022
        ]
      }
    },
    {
      "type": "Feature",
      "properties": {
        "type": "node",
        "tags": {
          "name": "KJO"
        }
      },
      "geometry": {
        "type": "Point",
        "coordinates": [
          9.97078,
          59.10126
        ]
      }
    },
    {
      "type": "Feature",
      "properties": {
        "type": "node",
        "tags": {
          "name": "KJS"
        }
      },
      "geometry": {
        "type": "Point",
        "coordinates": [
          9.9196,
          59.10702
        ]
      }
    },
    {
      "type": "Feature",
      "properties": {
        "type": "node",
        "tags": {
          "name": "EIK"
        }
      },
      "geometry": {
        "type": "Point",
        "coordinates": [
          9.89625,
          59.14697
        ]
      }
    },
    {
      "type": "Feature",
      "properties": {
        "type": "node",
        "tags": {
          "name": "OKL"
        }
      },
      "geometry": {
        "type": "Point",
        "coordinates": [
          9.80775,
          59.17892
        ]
      }
    },
    {
      "type": "Feature",
      "properties": {
        "type": "node",
        "tags": {
          "name": "BRE"
        }
      },
      "geometry": {
        "type": "Point",
        "coordinates": [
          9.69883,
          59.05272
        ]
      }
    },
    {
      "type": "Feature",
      "properties": {
        "type": "node",
        "tags": {
          "name": "SKN"
        }
      },
      "geometry": {
        "type": "Point",
        "coordinates": [
          9.60321,
          59.21908
        ]
      }
    },
    {
      "type": "Feature",
      "properties": {
        "type": "node",
        "tags": {
          "name": "BOS"
        }
      },
      "geometry": {
        "type": "Point",
        "coordinates": [
          9.64521,
          59.16696
        ]
      }
    },
    {
      "type": "Feature",
      "properties": {
        "type": "node",
        "tags": {
          "name": "PG"
        }
      },
      "geometry": {
        "type": "Point",
        "coordinates": [
          9.65914,
          59.13994
        ]
      }
    },
    {
      "type": "Feature",
      "properties": {
        "type": "node",
        "tags": {
          "name": "EID"
        }
      },
      "geometry": {
        "type": "Point",
        "coordinates": [
          9.69595,
          59.12397
        ]
      }
    }
  ]
}
